[{"ID":8022,"Name":"Name 1","Address":{"Street":"Street 1","City":"City 1","State":"State 1","ZipCode":"ZipCode 1","Country":"Country 1"},"Location":{},"Concurrency":2652,"__metadata":{"uri":"/Suppliers(8022)","type":"ODataDemo.Supplier"},"Products":{"__deferred":{"uri":"/Suppliers(8022)/Products"}}},{"ID":3710,"Name":"Name 2","Address":{"Street":"Street 2","City":"City 2","State":"State 2","ZipCode":"ZipCode 2","Country":"Country 2"},"Location":{},"Concurrency":7931,"__metadata":{"uri":"/Suppliers(3710)","type":"ODataDemo.Supplier"},"Products":{"__deferred":{"uri":"/Suppliers(3710)/Products"}}},{"ID":2456,"Name":"Name 3","Address":{"Street":"Street 3","City":"City 3","State":"State 3","ZipCode":"ZipCode 3","Country":"Country 3"},"Location":{},"Concurrency":1323,"__metadata":{"uri":"/Suppliers(2456)","type":"ODataDemo.Supplier"},"Products":{"__deferred":{"uri":"/Suppliers(2456)/Products"}}},{"ID":3112,"Name":"Name 4","Address":{"Street":"Street 4","City":"City 4","State":"State 4","ZipCode":"ZipCode 4","Country":"Country 4"},"Location":{},"Concurrency":5752,"__metadata":{"uri":"/Suppliers(3112)","type":"ODataDemo.Supplier"},"Products":{"__deferred":{"uri":"/Suppliers(3112)/Products"}}},{"ID":125,"Name":"Name 5","Address":{"Street":"Street 5","City":"City 5","State":"State 5","ZipCode":"ZipCode 5","Country":"Country 5"},"Location":{},"Concurrency":4371,"__metadata":{"uri":"/Suppliers(125)","type":"ODataDemo.Supplier"},"Products":{"__deferred":{"uri":"/Suppliers(125)/Products"}}},{"ID":4674,"Name":"Name 6","Address":{"Street":"Street 6","City":"City 6","State":"State 6","ZipCode":"ZipCode 6","Country":"Country 6"},"Location":{},"Concurrency":5518,"__metadata":{"uri":"/Suppliers(4674)","type":"ODataDemo.Supplier"},"Products":{"__deferred":{"uri":"/Suppliers(4674)/Products"}}},{"ID":8766,"Name":"Name 7","Address":{"Street":"Street 7","City":"City 7","State":"State 7","ZipCode":"ZipCode 7","Country":"Country 7"},"Location":{},"Concurrency":6115,"__metadata":{"uri":"/Suppliers(8766)","type":"ODataDemo.Supplier"},"Products":{"__deferred":{"uri":"/Suppliers(8766)/Products"}}},{"ID":7083,"Name":"Name 8","Address":{"Street":"Street 8","City":"City 8","State":"State 8","ZipCode":"ZipCode 8","Country":"Country 8"},"Location":{},"Concurrency":4670,"__metadata":{"uri":"/Suppliers(7083)","type":"ODataDemo.Supplier"},"Products":{"__deferred":{"uri":"/Suppliers(7083)/Products"}}},{"ID":6907,"Name":"Name 9","Address":{"Street":"Street 9","City":"City 9","State":"State 9","ZipCode":"ZipCode 9","Country":"Country 9"},"Location":{},"Concurrency":9079,"__metadata":{"uri":"/Suppliers(6907)","type":"ODataDemo.Supplier"},"Products":{"__deferred":{"uri":"/Suppliers(6907)/Products"}}},{"ID":3112,"Name":"Name 10","Address":{"Street":"Street 10","City":"City 10","State":"State 10","ZipCode":"ZipCode 10","Country":"Country 10"},"Location":{},"Concurrency":3031,"__metadata":{"uri":"/Suppliers(3112)","type":"ODataDemo.Supplier"},"Products":{"__deferred":{"uri":"/Suppliers(3112)/Products"}}},{"ID":9250,"Name":"Name 11","Address":{"Street":"Street 11","City":"City 11","State":"State 11","ZipCode":"ZipCode 11","Country":"Country 11"},"Location":{},"Concurrency":3227,"__metadata":{"uri":"/Suppliers(9250)","type":"ODataDemo.Supplier"},"Products":{"__deferred":{"uri":"/Suppliers(9250)/Products"}}},{"ID":1860,"Name":"Name 12","Address":{"Street":"Street 12","City":"City 12","State":"State 12","ZipCode":"ZipCode 12","Country":"Country 12"},"Location":{},"Concurrency":1733,"__metadata":{"uri":"/Suppliers(1860)","type":"ODataDemo.Supplier"},"Products":{"__deferred":{"uri":"/Suppliers(1860)/Products"}}},{"ID":9511,"Name":"Name 13","Address":{"Street":"Street 13","City":"City 13","State":"State 13","ZipCode":"ZipCode 13","Country":"Country 13"},"Location":{},"Concurrency":669,"__metadata":{"uri":"/Suppliers(9511)","type":"ODataDemo.Supplier"},"Products":{"__deferred":{"uri":"/Suppliers(9511)/Products"}}},{"ID":6845,"Name":"Name 14","Address":{"Street":"Street 14","City":"City 14","State":"State 14","ZipCode":"ZipCode 14","Country":"Country 14"},"Location":{},"Concurrency":9792,"__metadata":{"uri":"/Suppliers(6845)","type":"ODataDemo.Supplier"},"Products":{"__deferred":{"uri":"/Suppliers(6845)/Products"}}},{"ID":5096,"Name":"Name 15","Address":{"Street":"Street 15","City":"City 15","State":"State 15","ZipCode":"ZipCode 15","Country":"Country 15"},"Location":{},"Concurrency":9497,"__metadata":{"uri":"/Suppliers(5096)","type":"ODataDemo.Supplier"},"Products":{"__deferred":{"uri":"/Suppliers(5096)/Products"}}},{"ID":1346,"Name":"Name 16","Address":{"Street":"Street 16","City":"City 16","State":"State 16","ZipCode":"ZipCode 16","Country":"Country 16"},"Location":{},"Concurrency":417,"__metadata":{"uri":"/Suppliers(1346)","type":"ODataDemo.Supplier"},"Products":{"__deferred":{"uri":"/Suppliers(1346)/Products"}}},{"ID":6235,"Name":"Name 17","Address":{"Street":"Street 17","City":"City 17","State":"State 17","ZipCode":"ZipCode 17","Country":"Country 17"},"Location":{},"Concurrency":7773,"__metadata":{"uri":"/Suppliers(6235)","type":"ODataDemo.Supplier"},"Products":{"__deferred":{"uri":"/Suppliers(6235)/Products"}}},{"ID":9393,"Name":"Name 18","Address":{"Street":"Street 18","City":"City 18","State":"State 18","ZipCode":"ZipCode 18","Country":"Country 18"},"Location":{},"Concurrency":569,"__metadata":{"uri":"/Suppliers(9393)","type":"ODataDemo.Supplier"},"Products":{"__deferred":{"uri":"/Suppliers(9393)/Products"}}},{"ID":7560,"Name":"Name 19","Address":{"Street":"Street 19","City":"City 19","State":"State 19","ZipCode":"ZipCode 19","Country":"Country 19"},"Location":{},"Concurrency":1345,"__metadata":{"uri":"/Suppliers(7560)","type":"ODataDemo.Supplier"},"Products":{"__deferred":{"uri":"/Suppliers(7560)/Products"}}},{"ID":3878,"Name":"Name 20","Address":{"Street":"Street 20","City":"City 20","State":"State 20","ZipCode":"ZipCode 20","Country":"Country 20"},"Location":{},"Concurrency":9902,"__metadata":{"uri":"/Suppliers(3878)","type":"ODataDemo.Supplier"},"Products":{"__deferred":{"uri":"/Suppliers(3878)/Products"}}},{"ID":6417,"Name":"Name 21","Address":{"Street":"Street 21","City":"City 21","State":"State 21","ZipCode":"ZipCode 21","Country":"Country 21"},"Location":{},"Concurrency":1882,"__metadata":{"uri":"/Suppliers(6417)","type":"ODataDemo.Supplier"},"Products":{"__deferred":{"uri":"/Suppliers(6417)/Products"}}},{"ID":630,"Name":"Name 22","Address":{"Street":"Street 22","City":"City 22","State":"State 22","ZipCode":"ZipCode 22","Country":"Country 22"},"Location":{},"Concurrency":7729,"__metadata":{"uri":"/Suppliers(630)","type":"ODataDemo.Supplier"},"Products":{"__deferred":{"uri":"/Suppliers(630)/Products"}}},{"ID":7802,"Name":"Name 23","Address":{"Street":"Street 23","City":"City 23","State":"State 23","ZipCode":"ZipCode 23","Country":"Country 23"},"Location":{},"Concurrency":9982,"__metadata":{"uri":"/Suppliers(7802)","type":"ODataDemo.Supplier"},"Products":{"__deferred":{"uri":"/Suppliers(7802)/Products"}}},{"ID":3648,"Name":"Name 24","Address":{"Street":"Street 24","City":"City 24","State":"State 24","ZipCode":"ZipCode 24","Country":"Country 24"},"Location":{},"Concurrency":7402,"__metadata":{"uri":"/Suppliers(3648)","type":"ODataDemo.Supplier"},"Products":{"__deferred":{"uri":"/Suppliers(3648)/Products"}}},{"ID":607,"Name":"Name 25","Address":{"Street":"Street 25","City":"City 25","State":"State 25","ZipCode":"ZipCode 25","Country":"Country 25"},"Location":{},"Concurrency":4556,"__metadata":{"uri":"/Suppliers(607)","type":"ODataDemo.Supplier"},"Products":{"__deferred":{"uri":"/Suppliers(607)/Products"}}},{"ID":5647,"Name":"Name 26","Address":{"Street":"Street 26","City":"City 26","State":"State 26","ZipCode":"ZipCode 26","Country":"Country 26"},"Location":{},"Concurrency":5848,"__metadata":{"uri":"/Suppliers(5647)","type":"ODataDemo.Supplier"},"Products":{"__deferred":{"uri":"/Suppliers(5647)/Products"}}},{"ID":4489,"Name":"Name 27","Address":{"Street":"Street 27","City":"City 27","State":"State 27","ZipCode":"ZipCode 27","Country":"Country 27"},"Location":{},"Concurrency":9979,"__metadata":{"uri":"/Suppliers(4489)","type":"ODataDemo.Supplier"},"Products":{"__deferred":{"uri":"/Suppliers(4489)/Products"}}},{"ID":232,"Name":"Name 28","Address":{"Street":"Street 28","City":"City 28","State":"State 28","ZipCode":"ZipCode 28","Country":"Country 28"},"Location":{},"Concurrency":894,"__metadata":{"uri":"/Suppliers(232)","type":"ODataDemo.Supplier"},"Products":{"__deferred":{"uri":"/Suppliers(232)/Products"}}},{"ID":175,"Name":"Name 29","Address":{"Street":"Street 29","City":"City 29","State":"State 29","ZipCode":"ZipCode 29","Country":"Country 29"},"Location":{},"Concurrency":7278,"__metadata":{"uri":"/Suppliers(175)","type":"ODataDemo.Supplier"},"Products":{"__deferred":{"uri":"/Suppliers(175)/Products"}}},{"ID":2646,"Name":"Name 30","Address":{"Street":"Street 30","City":"City 30","State":"State 30","ZipCode":"ZipCode 30","Country":"Country 30"},"Location":{},"Concurrency":7045,"__metadata":{"uri":"/Suppliers(2646)","type":"ODataDemo.Supplier"},"Products":{"__deferred":{"uri":"/Suppliers(2646)/Products"}}}]